,City,Cloudiness,Country,Date,Humidity,Lat,Lng,Max Temp,Wind Speed
0,Dzilam Gonzalez,79,MX,1579891131,70,21.28,-88.93,71.8,3.18
1,Okha,100,RU,1579891131,92,53.57,142.95,-0.89,13.02
2,Busselton,80,AU,1579890873,52,-33.65,115.33,64.0,11.5
3,East London,20,ZA,1579890606,78,-33.02,27.91,75.2,5.82
4,Punta Arenas,90,CL,1579890881,87,-53.15,-70.92,44.6,10.29
5,Ribeira Grande,75,PT,1579890872,62,38.52,-28.7,59.0,6.93
6,Quatre Cocos,75,MU,1579891132,88,-20.21,57.76,80.6,11.41
7,Yellowknife,75,CA,1579890842,84,62.46,-114.35,5.0,8.05
8,Nishihara,75,JP,1579891132,94,26.18,127.76,69.8,5.82
9,Diamantino,2,BR,1579891132,53,-14.41,-56.45,88.54,6.73
10,Pingliang,100,CN,1579891132,81,35.54,106.69,22.53,1.41
11,Qaanaaq,0,GL,1579890877,50,77.48,-69.36,-9.54,6.6
12,Bubaque,24,GW,1579891132,65,11.28,-15.83,79.79,13.09
13,Yertarskiy,5,RU,1579891133,93,56.79,64.3,6.48,7.29
14,Isangel,72,VU,1579891019,85,-19.55,169.27,76.3,11.05
15,Atuona,43,PF,1579891133,81,-9.8,-139.03,80.01,14.41
16,San Quintin,100,MX,1579891133,72,30.48,-115.95,62.17,5.26
17,Lata,20,PT,1579890957,76,40.16,-8.33,55.99,4.7
18,Port Elizabeth,59,ZA,1579891068,82,-33.92,25.57,68.0,11.41
19,Khatanga,97,RU,1579890914,88,71.97,102.5,-26.88,9.33
20,Ushuaia,75,AR,1579890938,54,-54.8,-68.3,55.4,3.06
21,Rikitea,0,PF,1579890871,71,-23.12,-134.97,78.08,18.45
22,Pangnirtung,20,CA,1579890931,66,66.15,-65.71,-29.2,3.36
23,Oodweyne,100,SO,1579890925,66,9.41,45.06,69.39,11.97
24,Port Alfred,67,ZA,1579890606,97,-33.59,26.89,69.01,11.99
25,Carballo,100,ES,1579891134,81,43.21,-8.69,52.0,2.24
26,Orlik,79,RU,1579891134,88,52.52,99.83,-5.03,4.7
27,Sohag,0,EG,1579891135,47,26.56,31.69,57.2,9.17
28,Cape Town,20,ZA,1579890884,88,-33.93,18.42,73.0,12.75
29,Bell Ville,37,AR,1579891135,58,-32.63,-62.69,91.99,4.0
30,Saskylakh,100,RU,1579890873,87,71.92,114.08,-27.94,22.28
31,Quezon,10,PH,1579891135,1,7.73,125.1,75.99,1.01
32,Aktas,90,KZ,1579891135,92,49.78,72.96,28.4,20.13
33,Necochea,0,AR,1579890941,74,-38.55,-58.74,78.01,11.01
34,Ixtapa,20,MX,1579891136,61,20.7,-105.2,80.6,3.36
35,Dingle,11,PH,1579890959,93,11.0,122.67,73.94,7.61
36,Puerto Ayora,40,EC,1579891136,58,-0.74,-90.35,86.0,17.22
37,Vaini,20,TO,1579890878,88,-21.2,-175.2,77.0,5.82
38,Jamestown,1,US,1579890813,45,42.1,-79.24,46.0,10.29
39,Qaqortoq,90,GL,1579890930,79,60.72,-46.03,26.6,22.75
40,Mataura,100,NZ,1579890872,96,-46.19,168.86,59.0,3.0
41,Butaritari,100,KI,1579891137,74,3.07,172.79,84.2,8.32
42,Quelimane,40,MZ,1579891137,83,-17.88,36.89,75.2,10.29
43,Mar del Plata,40,AR,1579890989,41,-38.0,-57.56,93.2,20.8
44,Kapaa,1,US,1579890878,88,22.08,-159.32,68.0,9.17
45,Bella Union,0,UY,1579891137,26,-30.28,-57.6,89.96,6.06
46,Lavrentiya,0,RU,1579890889,79,65.58,-171.0,-16.42,3.8
47,Cap Malheureux,75,MU,1579891138,88,-19.98,57.61,80.6,11.41
48,Arraial do Cabo,90,BR,1579890892,83,-22.97,-42.03,77.0,4.7
49,Honningsvag,75,NO,1579891138,79,70.98,25.97,24.8,10.29
50,Bethel,1,US,1579890734,31,41.37,-73.41,51.01,4.7
51,Nioro,75,GM,1579891138,12,13.35,-15.75,102.25,8.72
52,Strezhevoy,40,RU,1579891138,85,60.73,77.59,17.6,13.42
53,Wenling,100,CN,1579890908,94,28.37,121.36,51.01,11.59
54,Alta Floresta,40,BR,1579891139,79,-9.88,-56.09,86.0,5.82
55,Ternate,36,ID,1579891139,89,0.8,127.4,73.06,2.98
56,Codrington,38,AU,1579890899,90,-38.27,141.97,60.4,17.9
57,Tasiilaq,75,GL,1579890915,57,65.61,-37.64,19.4,31.09
58,Clyde River,40,CA,1579890886,76,70.47,-68.59,-11.2,20.8
59,Yarovoy,100,RU,1579891139,96,52.93,78.58,29.93,15.84
60,Rio Gallegos,40,AR,1579891139,66,-51.62,-69.22,55.4,17.22
61,Puerto del Rosario,20,ES,1579891140,56,28.5,-13.86,68.0,12.75
62,Puerto Palomas,1,MX,1579891140,35,31.77,-107.62,55.4,5.82
63,Kaitangata,100,NZ,1579890888,69,-46.28,169.85,68.0,7.25
64,Broome,1,US,1579890897,56,42.25,-75.83,48.0,10.29
65,Mossamedes,0,AO,1579890905,77,-15.2,12.15,75.51,11.43
66,Albany,1,US,1579890875,44,42.6,-73.97,50.0,3.36
67,Marawi,8,PH,1579891141,90,8.0,124.29,77.0,3.0
68,Dawson,90,US,1579891065,88,31.77,-84.45,64.4,10.29
69,Hobart,99,AU,1579890823,55,-42.88,147.33,60.8,13.87
70,Padang,59,ID,1579890939,95,-0.95,100.35,68.31,4.45
71,Sao Felix do Xingu,56,BR,1579891141,83,-6.64,-51.99,83.34,5.32
72,Walvis Bay,0,NA,1579890969,73,-22.96,14.51,69.8,14.99
73,Taltal,11,CL,1579890949,65,-25.4,-70.48,74.73,8.08
74,Hithadhoo,53,MV,1579891142,76,-0.6,73.08,84.45,9.64
75,Belyy Yar,100,RU,1579891142,85,53.6,91.39,17.6,2.24
76,Saint George,1,US,1579890876,65,37.1,-113.58,52.0,3.36
77,Gannan,6,CN,1579891142,77,47.91,123.5,-7.37,0.6
78,Alyangula,100,AU,1579890965,83,-13.85,136.42,82.4,10.29
79,New Norfolk,100,AU,1579891143,55,-42.78,147.06,60.8,13.87
80,Magaria,0,NE,1579891143,13,13.0,8.91,73.31,11.95
81,Kirgiz-Miyaki,99,RU,1579891143,99,53.63,54.8,3.42,11.72
82,Mahebourg,75,MU,1579890910,88,-20.41,57.7,80.6,11.41
83,Barrow,1,US,1579890886,75,71.29,-156.79,-20.2,9.17
84,Cherskiy,65,RU,1579890936,97,68.75,161.3,-37.39,3.96
85,Tanete,88,ID,1579891144,95,-3.94,119.78,75.4,1.79
86,Provideniya,91,RU,1579890903,96,64.38,-173.3,-7.8,5.12
87,Athabasca,100,CA,1579890956,86,54.72,-113.29,30.11,5.12
88,Antropovo,99,RU,1579891144,94,58.4,43.01,30.07,10.87
89,Souillac,75,MU,1579890918,88,-20.52,57.52,80.6,11.41
90,Novikovo,99,RU,1579891144,91,51.15,37.89,27.68,16.06
91,Nantucket,1,US,1579890913,75,41.28,-70.1,48.2,5.82
92,Vestmannaeyjar,90,IS,1579890951,86,63.44,-20.27,33.8,20.8
93,Saint-Philippe,100,RE,1579890892,94,-21.36,55.77,78.8,16.11
94,Kavieng,0,PG,1579890882,65,-2.57,150.8,83.28,5.97
95,Muzhi,100,RU,1579891145,96,65.37,64.67,5.88,4.32
96,Port Augusta,0,AU,1579891146,77,-32.5,137.77,64.4,6.93
97,Saint-Michel-des-Saints,64,CA,1579891126,82,46.68,-73.92,30.88,5.01
98,Pavlogradka,100,RU,1579891146,92,54.2,73.56,28.02,12.73
99,Kununurra,98,AU,1579890872,94,-15.77,128.73,82.4,5.82
100,Ephrata,20,US,1579891146,57,40.18,-76.18,54.0,5.82
101,Umea,50,SE,1579890868,69,63.83,20.26,33.8,13.87
102,Torbay,75,CA,1579890673,81,47.67,-52.73,34.0,13.87
103,Sao Gabriel da Cachoeira,40,BR,1579891146,89,-0.13,-67.09,87.8,4.7
104,Vila Velha,90,BR,1579890952,88,-20.33,-40.29,79.0,11.41
105,Ozinki,29,RU,1579891147,92,51.18,49.68,8.67,12.1
106,Atasu,100,KZ,1579891147,98,48.68,71.64,33.46,17.58
107,Ca Mau,37,VN,1579891147,94,9.18,105.15,72.61,3.85
108,Uddevalla,0,SE,1579891147,80,58.35,11.94,44.01,8.05
109,Meridian,90,US,1579890958,100,43.61,-116.39,45.0,10.29
110,George Town,20,MY,1579890672,74,5.41,100.34,82.4,2.24
111,Paka,4,MY,1579891148,94,4.64,103.44,71.6,2.24
112,Airai,73,TL,1579890896,92,-8.93,125.41,67.32,3.18
113,Saint Paul,90,US,1579891008,86,44.94,-93.09,33.01,8.05
114,Nikolskoye,75,RU,1579890893,96,59.7,30.79,36.0,13.42
115,Nortelandia,19,BR,1579891149,55,-14.45,-56.8,88.11,6.33
116,Camapua,84,BR,1579891149,79,-19.53,-54.04,80.53,6.26
117,Avarua,83,CK,1579890872,88,-21.21,-159.78,80.6,6.93
118,Eyl,98,SO,1579890917,86,7.98,49.82,79.0,23.94
119,Kampot,20,KH,1579891149,88,10.62,104.18,73.4,2.24
120,Bluff,100,NZ,1579890676,96,-46.6,168.33,59.0,3.0
121,Santa Fe,3,AR,1579891149,31,-31.63,-60.7,96.01,1.99
122,Hermanus,0,ZA,1579890873,88,-34.42,19.23,73.0,1.99
123,Sao Filipe,2,CV,1579890905,67,14.9,-24.5,74.61,16.67
124,Ponta do Sol,20,PT,1579890914,51,32.67,-17.1,62.6,6.93
125,Cockburn Town,40,TC,1579890868,61,21.46,-71.14,78.8,3.36
126,Izumo,75,JP,1579891150,65,35.37,132.77,44.6,16.11
127,Iracoubo,98,GF,1579891150,80,5.48,-53.2,79.47,12.48
128,Balkanabat,100,TM,1579891150,78,39.51,54.37,38.71,0.69
129,Buala,5,SB,1579891151,82,-8.14,159.59,79.72,7.87
130,Ancud,40,CL,1579891151,52,-41.87,-73.82,68.0,17.22
131,Chui,0,UY,1579890930,44,-33.7,-53.46,82.09,6.6
132,Innisfail,100,AU,1579891151,92,-17.53,146.03,75.61,2.91
133,Macao,40,MO,1579891151,94,22.2,113.55,70.0,12.75
134,Iregszemcse,22,HU,1579891152,72,46.69,18.19,31.17,3.83
135,Baruun-Urt,53,MN,1579891152,84,46.68,113.28,-1.44,7.99
136,Dongsheng,0,CN,1579890952,69,39.82,109.98,15.21,8.9
137,Khovu-Aksy,86,RU,1579891152,82,51.13,93.6,1.13,10.42
138,Esmeraldas,75,BR,1579891152,100,-19.76,-44.31,75.2,9.17
139,San Carlos,85,VE,1579891152,27,9.66,-68.58,100.13,4.32
140,Cacu,48,BR,1579891153,86,-18.56,-51.13,79.25,7.25
141,Palizada,94,MX,1579891153,69,18.25,-92.08,79.43,3.09
142,Petropavlovsk-Kamchatsky,100,RU,1579891153,55,53.05,158.65,10.4,2.24
143,Guerrero Negro,100,MX,1579890574,45,27.98,-114.06,67.35,3.22
144,Faanui,17,PF,1579890918,74,-16.48,-151.75,82.4,14.54
145,Ahipara,0,NZ,1579891154,100,-35.17,173.17,63.0,7.54
146,Belle Fourche,90,US,1579891154,64,44.67,-103.85,43.0,1.86
147,Medeiros Neto,100,BR,1579891154,88,-17.37,-40.22,73.98,10.45
148,Hudiksvall,2,SE,1579891154,58,61.73,17.1,37.99,5.01
149,Leon,20,MX,1579891154,37,21.12,-101.67,66.2,7.05
150,Sorland,75,NO,1579891009,80,67.67,12.69,33.8,26.4
151,Thompson,75,CA,1579890904,85,55.74,-97.86,12.2,4.7
152,Katsuura,40,JP,1579891155,52,35.13,140.3,46.4,16.11
153,Lodja,97,CD,1579891155,55,-3.48,23.43,78.08,1.57
154,Bhopal,0,IN,1579891155,82,23.27,77.4,55.4,2.24
155,Gold Coast,100,AU,1579891081,83,-28.0,153.43,81.0,5.82
156,Elko,90,US,1579891155,93,41.0,-115.5,39.99,5.57
157,Kirakira,19,SB,1579890894,81,-10.45,161.92,76.69,3.38
158,Tuktoyaktuk,90,CA,1579890878,77,69.45,-133.04,-2.2,6.93
159,Lorengau,5,PG,1579890953,70,-2.02,147.27,83.53,5.53
160,Klaksvik,100,FO,1579890917,86,62.23,-6.59,37.4,6.93
161,Pozo Colorado,7,PY,1579891156,26,-23.49,-58.8,97.95,8.59
162,Severo-Kuril'sk,80,RU,1579890907,87,50.68,156.12,14.31,22.82
163,Hong Kong,40,HK,1579890916,88,22.29,114.16,72.0,14.99
164,Richards Bay,33,ZA,1579890953,75,-28.78,32.04,78.15,24.11
165,Iqaluit,20,CA,1579890954,67,63.75,-68.51,-23.01,13.87
166,Bengkulu,100,ID,1579890594,97,-3.8,102.27,74.03,4.27
167,Emba,94,KZ,1579891157,97,48.83,58.14,6.28,10.04
168,Bambous Virieux,75,MU,1579890869,88,-20.34,57.76,80.6,11.41
169,Santiago de Cao,20,PE,1579891157,74,-7.96,-79.24,80.6,9.17
170,Beyneu,66,KZ,1579890907,78,45.32,55.2,27.97,16.31
171,Philadelphia,75,US,1579890999,50,39.95,-75.16,55.0,9.17
172,Teya,98,RU,1579891158,92,60.38,92.63,21.25,6.93
173,Rio Grande,20,BR,1579890938,45,-32.03,-52.1,87.8,9.17
174,Mazagao,75,BR,1579891153,100,-0.12,-51.29,80.6,4.7
175,Suntar,100,RU,1579891158,97,62.14,117.63,-17.84,5.55
176,La Tuque,65,CA,1579891158,86,47.43,-72.78,22.77,2.84
177,Kasongo-Lunda,43,CD,1579890887,78,-6.47,16.82,73.63,1.92
178,Fort Nelson,90,CA,1579890893,84,58.81,-122.7,8.6,5.82
179,Tarakan,57,ID,1579890849,85,3.3,117.63,80.24,7.18
180,Chokurdakh,0,RU,1579890905,88,70.63,147.92,-35.1,4.68
181,Kodiak,20,US,1579890876,56,57.79,-152.41,15.8,14.99
182,Mecca,0,SA,1579890904,51,21.43,39.83,61.07,10.87
183,Pochutla,75,MX,1579891159,69,15.74,-96.47,87.01,9.95
184,Erenhot,0,CN,1579890959,80,43.65,111.98,12.15,10.71
185,Aloleng,65,PH,1579891160,83,16.13,119.78,72.48,3.38
186,Ciudad Sabinas Hidalgo,1,MX,1579891160,57,26.5,-100.17,65.57,7.99
187,Grand Gaube,75,MU,1579890910,88,-20.01,57.66,80.6,11.41
188,Bredasdorp,0,ZA,1579890875,77,-34.53,20.04,70.0,10.11
189,Port Moresby,71,PG,1579891141,82,-9.44,147.18,80.73,6.91
190,Farah,1,AF,1579891160,87,32.5,62.5,46.11,0.54
191,Te Anau,100,NZ,1579890920,100,-45.42,167.72,57.78,1.28
192,Poli,40,TZ,1579891161,94,-3.33,36.8,75.2,4.27
193,San Luis,61,AR,1579891161,21,-33.3,-66.34,97.27,6.51
194,Karratha,0,AU,1579890890,77,-20.74,116.85,84.04,15.03
195,Dumas,1,US,1579891161,31,35.87,-101.97,51.8,24.16
196,Batagay,8,RU,1579891161,93,67.63,134.63,-41.17,1.45
197,Aklavik,90,CA,1579890901,76,68.22,-135.01,-4.0,10.29
198,Longyearbyen,40,SJ,1579890873,60,78.22,15.64,8.6,21.92
199,Palauig,72,PH,1579891162,76,15.44,119.9,73.11,3.11
200,Nelson,45,NZ,1579891162,87,-41.28,173.28,64.0,4.32
201,Hilo,90,US,1579890618,68,19.73,-155.09,71.6,1.66
202,Norman Wells,90,CA,1579890900,76,65.28,-126.83,-7.6,5.82
203,Omboue,97,GA,1579891162,89,-1.57,9.26,78.44,3.0
204,Kahului,1,US,1579890906,82,20.89,-156.47,75.0,4.7
205,Portland,75,US,1579891020,76,45.52,-122.68,54.0,14.99
206,Danielskuil,67,ZA,1579891163,50,-28.19,23.54,71.55,17.76
207,Shache,82,CN,1579891107,71,38.42,77.24,22.08,4.27
208,Portobelo,40,PA,1579891163,52,9.55,-79.65,90.0,11.41
209,Medicine Hat,75,CA,1579890960,82,50.05,-110.67,39.99,13.87
210,Shaunavon,100,CA,1579891163,87,49.65,-108.42,32.41,10.8
211,Pitimbu,75,BR,1579890816,70,-7.47,-34.81,84.2,9.17
212,Port Hardy,75,CA,1579891163,93,50.7,-127.42,46.4,6.93
213,Tautira,20,PF,1579891164,70,-17.73,-149.15,84.2,2.24
214,Kushnarenkovo,90,RU,1579891164,78,55.1,55.35,15.8,8.95
215,Raglan,14,NZ,1579891164,96,-37.8,174.88,64.0,1.01
216,Camara de Lobos,20,PT,1579891164,51,32.63,-16.97,62.6,6.93
217,Dikson,100,RU,1579890874,96,73.51,80.55,-3.57,8.43
218,Great Falls,1,US,1579891165,49,47.5,-111.3,51.01,16.11
219,Pak Phanang,10,TH,1579891165,85,8.35,100.2,73.31,1.61
220,Samfya,60,ZM,1579891165,89,-11.36,29.56,68.11,2.98
221,Beringovskiy,100,RU,1579890934,98,63.05,179.32,-0.53,9.46
222,Burrel,0,AL,1579891166,81,41.61,20.01,42.8,1.12
223,Assiniboia,67,CA,1579891166,88,49.63,-105.98,31.86,11.12
224,Panacan,90,PH,1579891166,78,9.25,118.41,82.4,6.93
225,Hasaki,75,JP,1579890952,68,35.73,140.83,39.2,5.82
226,Vardo,75,NO,1579891166,63,70.37,31.11,26.6,13.87
227,Lima,20,PE,1579891085,65,-12.04,-77.03,82.4,11.41
228,Bonthe,20,SL,1579890896,68,7.53,-12.51,83.1,10.85
229,Bac Lieu,27,VN,1579891167,93,9.29,105.72,72.88,5.97
230,Leeuwarden,90,NL,1579891167,100,53.2,5.81,41.0,10.29
231,Sorada,23,IN,1579891167,85,19.75,84.43,65.73,2.21
232,Ostrovnoy,100,RU,1579890921,88,68.05,39.51,11.3,6.76
233,Saldanha,0,ZA,1579890886,73,-33.01,17.94,69.8,8.05
234,Atar,19,MR,1579891018,15,20.52,-13.05,89.6,4.7
235,Pundaguitan,61,PH,1579891167,80,6.37,126.17,79.99,0.29
236,Laguna,1,US,1579890893,93,38.42,-121.42,61.0,4.7
237,Yarmouth,1,US,1579891168,69,41.71,-70.23,48.99,4.7
238,Mendoza,71,AR,1579891159,25,-32.89,-68.83,89.6,7.61
239,Coquimbo,0,CL,1579890906,53,-29.95,-71.34,77.0,14.99
240,Teguise,20,ES,1579891168,55,29.06,-13.56,66.2,10.29
241,Sitka,90,US,1579890846,100,57.05,-135.33,33.8,10.29
242,Touros,75,BR,1579890956,62,-5.2,-35.46,86.0,11.41
243,Shubarkuduk,100,KZ,1579891169,97,49.14,56.49,6.01,8.12
244,Whitehorse,90,CA,1579890919,84,60.72,-135.05,7.0,8.05
245,Uvat,97,RU,1579891169,97,59.14,68.9,8.15,5.95
246,Pevek,0,RU,1579890678,97,69.7,170.31,-27.89,1.81
247,Tomatlan,75,MX,1579891028,46,19.93,-105.25,85.15,2.91
248,Lebu,0,CL,1579890878,32,-37.62,-73.65,72.01,12.28
249,Bulolo,95,PG,1579891170,94,-7.2,146.65,66.38,1.7
250,Haines Junction,100,CA,1579890957,99,60.75,-137.51,-6.79,7.78
251,Sinnamary,98,GF,1579891170,80,5.38,-52.95,79.47,12.48
252,Port Hawkesbury,1,CA,1579891170,74,45.62,-61.35,37.0,10.29
253,Aripuana,66,BR,1579890986,91,-9.17,-60.63,81.09,4.76
254,Geraldton,0,AU,1579890911,82,-28.77,114.6,66.2,8.05
255,Moron,69,AR,1579890926,40,-34.65,-58.62,91.99,10.29
256,Ngunguru,0,NZ,1579891171,94,-35.62,174.5,61.0,5.99
257,Safi,41,MA,1579891131,73,32.3,-9.24,57.96,19.24
258,Castro,26,BR,1579890920,61,-24.79,-50.01,74.53,6.71
259,Calabozo,47,VE,1579891171,26,8.92,-67.43,96.89,6.13
260,Dicabisagan,98,PH,1579891171,86,17.08,122.42,74.68,7.4
261,Nalut,50,LY,1579891171,18,30.33,10.85,64.42,12.1
262,Broken Hill,0,AU,1579891172,36,-31.95,141.43,62.6,3.36
263,Sur,7,OM,1579890899,72,22.57,59.53,69.66,3.87
264,Saint-Augustin,0,CA,1579890899,70,51.23,-58.65,5.77,15.9
265,Kerema,51,PG,1579891172,78,-7.96,145.78,76.03,3.06
266,Salalah,0,OM,1579890883,78,17.02,54.09,77.0,2.24
267,Turukhansk,98,RU,1579890906,93,65.82,87.98,14.25,13.0
268,Tuatapere,100,NZ,1579890895,96,-46.13,167.68,59.0,3.0
269,Paso de los Toros,20,UY,1579891173,40,-32.82,-56.52,86.0,9.17
270,Porto-Novo,31,BJ,1579890917,62,6.5,2.6,84.2,4.7
271,Caracoli,100,CO,1579891173,94,6.41,-74.76,71.46,2.48
272,Biloela,100,AU,1579890963,91,-24.42,150.5,75.31,1.61
273,Miyazu,99,JP,1579891173,85,35.53,135.18,36.09,5.73
274,Northam,75,GB,1579890910,93,51.03,-4.22,44.01,1.12
275,Tikapur,24,NP,1579891174,78,28.5,81.13,51.94,5.06
276,Bandarbeyla,100,SO,1579890906,85,9.49,50.81,78.8,18.79
277,Aykhal,100,RU,1579891174,74,66.0,111.5,-25.6,11.77
278,Tigil,100,RU,1579891174,94,57.8,158.67,2.48,12.86
279,Praia da Vitoria,75,PT,1579891174,71,38.73,-27.07,57.2,10.36
280,Tessalit,99,ML,1579891174,9,20.2,1.01,82.15,7.29
281,Linxia,52,CN,1579891107,75,35.6,103.21,18.37,1.57
282,Meulaboh,50,ID,1579890929,68,4.14,96.13,84.67,1.32
283,Atambua,88,ID,1579891175,85,-9.11,124.89,75.56,1.68
284,Shellbrook,75,CA,1579891175,92,53.22,-106.4,21.2,3.36
285,Khulo,75,GE,1579891175,97,41.64,42.31,35.6,6.93
286,Carnarvon,0,AU,1579890874,65,-24.87,113.63,78.8,17.22
287,Liverpool,75,GB,1579890970,100,53.41,-2.98,45.0,2.24
288,Bowen,75,AU,1579890906,94,-20.02,148.23,79.0,4.7
289,Bichura,11,RU,1579891176,85,50.59,107.6,-3.86,2.28
290,Port Blair,10,IN,1579890933,73,11.67,92.75,79.84,12.59
291,Montrose,40,US,1579891176,92,38.42,-108.27,39.99,3.11
292,Riyadh,0,SA,1579890758,35,24.69,46.72,55.4,5.82
293,Taldan,77,RU,1579891176,90,53.67,124.8,-20.15,1.9
294,Xining,26,CN,1579890946,84,36.62,101.77,13.1,2.59
295,Musoma,75,TZ,1579891176,83,-1.5,33.8,73.4,1.66
296,Chimbote,25,PE,1579891177,51,-9.09,-78.58,84.49,12.35
297,Ulladulla,90,AU,1579890985,100,-35.35,150.47,71.6,4.7
298,Pestovo,71,RU,1579891177,85,58.59,35.8,31.78,8.68
299,Pandhurna,0,IN,1579891177,54,21.6,78.52,65.91,4.65
300,Asau,14,RO,1579890881,49,46.43,26.4,32.0,9.17
301,Rantauprapat,4,ID,1579891177,97,2.1,99.83,74.39,0.72
302,Aksu,100,CN,1579890910,74,41.12,80.26,24.71,3.02
303,Gurupi,100,BR,1579891178,91,-11.73,-49.07,76.17,7.61
304,Esperance,90,AU,1579890876,100,-33.87,121.9,60.8,6.93
305,Laas,40,IT,1579890997,68,46.62,10.7,36.0,2.24
306,Nemuro,50,JP,1579890922,62,43.32,145.57,21.4,28.66
307,Gidole,100,ET,1579891178,47,5.65,37.37,73.13,3.42
308,Santiago del Estero,35,AR,1579891178,26,-27.8,-64.26,93.61,6.44
309,Mizdah,45,LY,1579891179,24,31.45,12.98,59.76,7.78
310,Kungurtug,18,RU,1579890972,77,50.6,97.52,0.43,4.34
311,Fairbanks,90,US,1579890821,76,64.84,-147.72,-4.0,1.23
312,Ada,90,US,1579891179,81,43.42,-116.13,45.0,10.29
313,Mount Isa,75,AU,1579890641,94,-20.73,139.5,77.0,5.82
314,Viedma,28,AR,1579891179,18,-40.81,-63.0,79.63,9.33
315,Avera,90,US,1579890908,100,33.19,-82.53,64.4,5.82
316,Jaciara,10,BR,1579891180,66,-15.97,-54.97,85.44,9.44
317,Stephenville Crossing,75,CA,1579891180,67,48.5,-58.43,23.0,13.87
318,Tobolsk,92,RU,1579891180,98,58.2,68.27,4.23,5.37
319,San Fernando del Valle de Catamarca,41,AR,1579891180,46,-28.47,-65.79,97.0,1.99
320,Los Llanos de Aridane,75,ES,1579890944,59,28.66,-17.92,66.2,1.12
321,Nuuk,75,GL,1579891032,78,64.18,-51.72,12.2,10.29
322,Salinas,1,US,1579891181,87,36.68,-121.66,60.01,4.45
323,Marrakesh,40,MA,1579890942,58,31.63,-8.01,59.0,12.75
324,Pangody,90,RU,1579891154,96,65.85,74.49,6.37,3.15
325,Cabo San Lucas,40,MX,1579890904,68,22.89,-109.91,73.99,10.29
326,Udachny,100,RU,1579891181,74,66.42,112.4,-25.6,20.4
327,Khandyga,58,RU,1579891181,97,62.67,135.6,-43.28,1.68
328,Cidreira,10,BR,1579890970,74,-30.18,-50.21,74.08,12.53
329,Lethem,62,GY,1579891182,29,3.38,-59.8,97.93,11.03
330,Ikalamavony,96,MG,1579891182,86,-21.15,46.58,69.42,6.26
331,Vila Franca do Campo,40,PT,1579890874,67,37.72,-25.43,57.2,9.17
332,Sobolevo,100,RU,1579891182,95,54.43,31.9,36.07,15.97
333,Kumul,0,CN,1579890889,52,42.8,93.45,13.86,1.03
334,Awjilah,0,LY,1579891182,57,29.11,21.29,56.55,7.45
335,Andenes,75,NO,1579891182,100,69.31,16.12,27.0,6.93
336,Namatanai,11,PG,1579890891,78,-3.67,152.43,82.85,12.21
337,The Valley,40,AI,1579890644,65,18.22,-63.06,82.99,4.7
338,Boundiali,30,CI,1579891183,8,9.52,-6.49,90.77,4.94
339,Ilulissat,75,GL,1579890948,57,69.22,-51.1,19.4,16.11
340,Moree,40,AU,1579891183,83,-29.47,149.85,77.0,5.82
341,Kanniyakumari,0,IN,1579891183,74,8.08,77.57,80.28,25.37
342,Kaeo,1,NZ,1579891184,94,-35.1,173.78,63.0,6.96
343,Upernavik,30,GL,1579890599,89,72.79,-56.15,-13.49,4.54
344,Margate,75,GB,1579891184,100,51.38,1.39,44.01,3.94
345,Nanortalik,100,GL,1579890898,93,60.14,-45.24,25.95,22.26
346,Alofi,75,NU,1579890912,100,-19.06,-169.92,77.0,2.24
347,Taunggyi,29,MM,1579891184,64,20.78,97.03,52.27,5.08
348,Arman,0,RU,1579891184,84,59.7,150.17,-14.73,10.51
349,Caravelas,100,BR,1579890934,85,-17.71,-39.25,78.44,20.13
350,Okhotsk,0,RU,1579891185,71,59.38,143.3,-25.42,9.6
351,Poum,78,NC,1579890902,77,-20.23,164.02,79.25,21.05
352,Grand-Santi,97,GF,1579890943,33,4.25,-54.38,96.1,3.31
353,Salta,20,AR,1579890922,42,-24.79,-65.41,86.0,5.82
354,Bulgan,11,MN,1579890961,66,48.81,103.53,5.34,3.74
355,Saint-Leu,100,RE,1579891185,94,-21.15,55.28,78.8,16.11
356,Hwange,100,ZW,1579891186,75,-18.37,26.5,73.63,4.05
357,Algiers,20,DZ,1579890984,66,36.75,3.04,55.4,2.24
358,Malbork,90,PL,1579891186,93,54.04,19.03,41.0,16.11
359,Itamaraca,75,BR,1579891186,70,-7.75,-34.83,86.0,9.17
360,Abu Dhabi,12,AE,1579891186,68,24.47,54.37,66.2,2.24
361,Jagatsinghapur,95,IN,1579891186,82,20.27,86.17,66.2,2.46
362,Ondo,55,NG,1579891186,10,7.1,4.83,83.97,3.78
363,Wilmington,40,US,1579890962,82,34.23,-77.94,68.0,3.36
364,Tasco,71,CO,1579891187,81,5.91,-72.78,57.38,4.7
365,Narsaq,90,GL,1579890754,79,60.92,-46.05,26.6,4.36
366,Pisco,75,PE,1579890950,30,-13.7,-76.22,71.6,10.29
367,Ginir,99,ET,1579891187,56,7.13,40.7,62.51,0.83
368,North Platte,75,US,1579891187,74,41.12,-100.77,37.0,6.93
369,Emporia,90,US,1579891188,80,38.4,-96.18,33.8,12.75
370,Nar'yan-Mar,98,RU,1579891084,99,67.67,53.09,-8.07,5.14
371,Moundsville,90,US,1579890960,81,39.92,-80.74,48.99,13.87
372,Tunceli,0,TR,1579891188,46,39.11,39.55,30.2,5.82
373,Nome,1,US,1579890882,68,64.5,-165.41,-11.0,7.31
374,Bam,52,IR,1579890881,45,29.11,58.36,54.16,1.57
375,Malya,98,TZ,1579891188,68,-2.98,33.52,67.68,3.62
376,Wuhu,40,CN,1579891188,87,31.34,118.38,42.8,4.47
377,Santa Ana,40,US,1579891189,72,33.75,-117.87,70.0,3.36
378,Comodoro Rivadavia,64,AR,1579890880,32,-45.87,-67.5,80.6,20.8
379,Vaitape,17,PF,1579891189,74,-16.52,-151.75,82.4,14.54
380,Republic of El Salvador,40,SV,1579890761,61,13.83,-88.92,89.6,5.82
381,San Vicente,0,AR,1579891189,63,-26.62,-54.13,82.0,6.15
382,Sennar,33,SD,1579891189,17,13.57,33.57,68.9,13.58
383,Binga,54,ZW,1579891189,74,-17.62,27.34,79.5,7.05
384,The Pas,75,CA,1579891189,92,53.83,-101.25,14.0,17.22
385,Corn Island,63,NI,1579891190,71,12.17,-83.04,78.66,14.09
386,Vao,25,NC,1579890908,81,-22.67,167.48,76.73,19.89
387,Anderson,90,US,1579891190,100,34.53,-82.65,46.0,5.82
388,Pouebo,48,NC,1579891190,91,-20.4,164.57,68.97,3.71
389,Rabak,17,SD,1579891190,15,13.18,32.74,69.21,14.94
390,Zalesovo,100,RU,1579891190,86,53.99,84.74,23.16,8.16
391,Betulia,75,CO,1579891191,42,6.11,-75.98,84.2,9.17
392,Tiksi,0,RU,1579890919,88,71.69,128.87,-33.57,5.55
393,Ola,0,RU,1579891191,73,59.58,151.28,-22.27,8.84
394,Yining,100,CN,1579891191,95,29.04,114.56,43.18,0.13
395,Nkhotakota,80,MW,1579891191,69,-12.93,34.3,82.56,16.93
396,Cayenne,40,GF,1579890922,62,4.93,-52.33,86.0,10.29
397,Ponta Delgada,40,PT,1579890932,67,37.73,-25.67,57.2,9.17
398,Kawalu,100,ID,1579890904,93,-7.38,108.21,71.73,1.72
399,Micheweni,100,TZ,1579891192,86,-4.97,39.83,82.18,14.7
400,Quepos,20,CR,1579891192,51,9.42,-84.17,84.2,13.87
401,Kenai,1,US,1579891192,82,60.55,-151.26,12.99,7.56
402,Kindu,100,CD,1579891192,55,-2.95,25.95,74.97,1.52
403,Ballina,75,AU,1579891192,88,-28.87,153.57,80.6,9.17
404,Grajau,100,BR,1579891193,80,-5.82,-46.14,83.12,4.63
405,North Battleford,1,CA,1579891193,85,52.78,-108.28,24.01,2.24
406,Huntington,90,US,1579890982,93,38.42,-82.45,53.01,5.82
407,Barrhead,90,GB,1579891193,100,55.8,-4.39,46.99,8.05
408,Rapid Valley,1,US,1579891193,55,44.06,-103.15,43.0,6.93
409,Fethiye,0,TR,1579891193,39,36.62,29.12,46.4,6.93
410,Hambantota,21,LK,1579890931,75,6.12,81.12,80.26,25.72
411,Zeya,0,RU,1579891194,78,53.75,127.27,-25.62,1.16
412,Sindi,0,IN,1579891194,72,20.8,78.87,66.2,2.24
413,Inuvik,90,CA,1579891118,83,68.35,-133.72,-4.0,8.05
414,Mbigou,100,GA,1579891195,93,-1.9,11.91,70.61,3.96
415,Kattivakkam,20,IN,1579890966,83,13.22,80.32,77.0,12.17
416,Acapetahua,40,MX,1579891195,52,15.28,-92.7,89.6,4.7
417,Neiafu,75,TO,1579891195,88,-18.65,-173.98,78.8,4.7
418,Nueva Imperial,20,CL,1579890928,41,-38.73,-72.95,78.8,11.41
419,Sakakah,40,SA,1579890879,65,29.97,40.21,44.6,19.46
420,Bosaso,89,SO,1579890886,76,11.28,49.18,76.86,7.54
421,Provincia de Ciudad Real,20,ES,1579891196,87,39.0,-4.0,48.0,5.82
422,Japura,30,ID,1579891196,97,-0.32,102.35,73.2,2.3
423,Ouango,89,CF,1579891196,17,4.31,22.56,77.41,3.36
424,Avanuorri,75,NO,1579891196,79,71.0,24.66,32.0,10.29
425,Rafraf,20,TN,1579891196,62,37.19,10.18,59.0,4.7
426,Haicheng,0,CN,1579890925,39,40.85,122.75,17.4,1.07
427,Altay,53,CN,1579890890,41,47.87,88.12,14.31,6.11
428,Alice Springs,28,AU,1579891197,31,-23.7,133.88,75.2,5.82
429,La Ronge,20,CA,1579890978,79,55.1,-105.28,23.0,8.05
430,Pelym,89,RU,1579891197,92,61.01,62.0,6.28,5.55
431,Chabahar,90,IR,1579891197,93,25.29,60.64,66.2,1.92
432,Amuntai,82,ID,1579891197,83,-2.42,115.25,76.33,2.08
433,Bukachacha,0,RU,1579891197,98,52.98,116.92,-20.11,2.3
434,Derzhavinsk,100,KZ,1579891197,95,51.1,66.32,16.88,10.31
435,Rokytne,100,UA,1579891198,74,51.28,27.21,32.58,12.06
436,Sisimiut,98,GL,1579891198,87,66.94,-53.67,10.31,8.61
437,Ziarat,99,PK,1579891198,98,30.38,67.73,34.3,2.75
438,Tazovsky,97,RU,1579891198,95,67.47,78.7,6.06,7.07
439,Talnakh,75,RU,1579890903,77,69.49,88.4,6.8,8.95
440,Lusambo,100,CD,1579891198,54,-4.97,23.45,79.03,1.41
441,Fortuna,1,US,1579890899,87,40.6,-124.16,57.0,4.7
442,Phangnga,20,TH,1579891198,83,8.45,98.53,77.0,1.12
443,Kristiansund,75,NO,1579891199,86,63.11,7.73,37.4,35.57
444,Kon Tum,23,VN,1579891199,87,14.35,108.0,55.71,2.73
445,Beloha,0,MG,1579891199,75,-25.17,45.05,70.18,13.94
446,Mizan Teferi,100,ET,1579891199,42,6.98,35.58,70.61,1.99
447,Ayan,95,RU,1579891199,74,56.45,138.17,-21.48,8.79
448,Kumluca,0,TR,1579891199,47,36.37,30.29,39.9,2.82
449,Coyhaique,75,CL,1579890935,52,-45.58,-72.07,66.2,11.41
450,Nouadhibou,83,MR,1579890997,64,20.93,-17.03,68.0,13.87
451,Kondinskoye,66,RU,1579891200,97,59.65,67.41,2.41,8.34
452,Kandiari,0,PK,1579891200,32,26.92,68.52,66.56,6.85
453,Biak,33,ID,1579891200,69,-0.91,122.88,81.28,3.47
454,Saint Anthony,90,US,1579890919,80,45.02,-93.22,33.01,6.93
455,Anori,90,BR,1579891200,41,-3.77,-61.64,98.44,1.92
456,Berlevag,100,NO,1579891201,68,70.86,29.09,28.24,14.52
457,Andros Town,23,BS,1579891201,61,24.7,-77.77,76.89,14.43
458,Barentu,9,ER,1579891201,40,15.11,37.59,61.79,7.83
459,Alugan,2,PH,1579891201,87,12.22,125.48,78.75,10.36
460,Poronaysk,100,RU,1579891201,81,49.22,143.12,0.34,8.88
461,Yanam,41,IN,1579891201,84,16.73,82.22,68.41,1.05
462,Baraki Barak,95,AF,1579891202,94,33.97,68.95,17.92,2.35
463,Cassilandia,68,BR,1579890958,82,-19.11,-51.73,79.74,8.14
464,Bojnourd,75,IR,1579890963,69,37.47,57.33,37.4,2.15
465,Mehamn,75,NO,1579891202,79,71.04,27.85,24.8,10.29
466,Orapa,30,BW,1579891202,33,-21.28,25.37,82.11,3.06
467,Yangi Marg`ilon,90,UZ,1579890963,74,40.43,71.72,35.6,6.93
468,Dergachi,34,RU,1579891202,91,51.23,48.77,11.03,12.28
469,Khor,0,RU,1579891203,84,47.89,134.95,-13.97,9.31
470,Srednekolymsk,100,RU,1579890914,94,67.45,153.68,-28.75,5.12
471,Fenoarivo,75,MG,1579891203,88,-18.93,47.44,68.0,4.7
472,Barra,100,BR,1579891079,84,-11.09,-43.14,74.95,8.48
473,Oranjemund,0,NA,1579890951,77,-28.55,16.43,68.22,7.43
474,Prince Rupert,100,CA,1579890903,85,54.32,-130.32,43.14,15.41
475,Kiryat Gat,20,IL,1579890932,71,31.61,34.76,50.0,2.24
476,Nabire,95,ID,1579891204,97,-3.37,135.48,73.51,1.63
477,Bonfim,80,BR,1579891204,31,3.08,-59.95,97.43,5.39
478,Vanavara,100,RU,1579890990,95,60.34,102.28,10.42,5.57
479,San Francisco,75,US,1579890894,81,37.77,-122.42,60.01,5.82
480,Krasnosel'kup,94,RU,1579891204,93,65.7,82.47,17.06,15.5
481,Lompoc,1,US,1579890875,87,34.64,-120.46,69.01,14.99
482,Flinders,90,AU,1579891205,100,-34.58,150.86,73.0,4.7
483,Griffith,90,US,1579891205,100,41.53,-87.42,39.2,3.49
484,Banda Aceh,3,ID,1579891205,95,5.56,95.32,73.81,4.7
485,Tateyama,40,JP,1579890890,52,34.98,139.87,46.4,16.11
486,Tabou,55,CI,1579891205,76,4.42,-7.35,82.81,6.49
487,Tshikapa,100,CD,1579891205,76,-6.42,20.8,75.18,1.14
488,Tovuz,40,AZ,1579891206,40,40.99,45.63,35.6,16.11
489,Suez,6,EG,1579891206,53,29.97,32.53,51.98,11.21
490,Seymchan,100,RU,1579891007,96,62.88,152.43,-32.58,3.56
491,Taksimo,52,RU,1579891206,98,56.34,114.88,-22.43,1.57
492,Le Moule,20,GP,1579891206,69,16.33,-61.35,82.4,12.75
493,Plettenberg Bay,11,ZA,1579891206,83,-34.05,23.37,69.08,1.74
494,Beckley,90,US,1579891206,83,37.78,-81.19,50.0,20.8
495,Egvekinot,78,RU,1579890941,86,66.32,-179.17,-11.61,5.53
496,Tezu,91,IN,1579890927,78,27.92,96.17,49.93,2.98
497,Muros,20,ES,1579891043,76,42.78,-9.06,54.0,2.01
498,Palatka,75,US,1579891207,60,29.65,-81.64,75.99,9.17
499,Deputatsky,3,RU,1579890908,96,69.3,139.9,-36.53,1.83
500,Zvecka,0,RS,1579891207,59,44.64,20.16,32.0,1.12
501,Sal,20,JO,1579891207,69,32.57,35.91,39.2,14.99
502,Aykino,84,RU,1579891208,98,62.22,49.99,0.88,3.85
503,Pullman,75,US,1579891208,87,46.73,-117.18,48.2,4.7
504,Pontianak,40,ID,1579891097,94,-0.03,109.33,78.8,0.94
505,Vanimo,96,PG,1579890881,77,-2.67,141.3,82.65,6.29
506,Shingu,55,JP,1579891145,69,33.73,135.98,49.28,10.29
507,Yar-Sale,97,RU,1579891208,96,66.83,70.83,4.46,6.29
508,Shimoda,40,JP,1579891208,87,34.67,138.95,48.2,3.36
509,Santa Cruz de la Sierra,40,BO,1579890607,39,-17.8,-63.17,95.0,12.75
510,Lipin Bor,89,RU,1579891209,90,60.26,37.98,28.17,11.14
511,Isabela,20,PH,1579891209,88,6.71,121.97,78.8,2.24
512,Lubao,90,PH,1579891209,83,14.92,120.55,77.0,2.24
513,Colares,75,PT,1579891209,76,38.8,-9.45,55.4,4.7
514,Skibbereen,75,IE,1579890913,93,51.55,-9.27,42.8,6.93
515,Verkhniye Sergi,100,RU,1579891209,94,56.65,59.56,6.19,11.05
516,Lagos,74,NG,1579891210,71,6.58,3.75,78.51,6.49
517,Thayetmyo,100,MM,1579891210,69,19.32,95.18,61.68,5.55
518,Magistralnyy,100,RU,1579891210,83,56.17,107.45,10.47,7.99
519,San Diego de Los Banos,76,CU,1579891210,47,22.65,-83.37,78.53,1.48
520,Bonavista,67,CA,1579890916,74,48.65,-53.11,30.0,14.0
521,Porto Belo,20,BR,1579891211,65,-27.16,-48.55,84.0,11.41
522,Nizhnyaya Tavda,52,RU,1579891211,96,57.67,66.17,5.0,6.13
523,Kargil,99,IN,1579891211,98,34.57,76.1,-3.48,0.89
524,Leningradskiy,0,RU,1579890898,70,69.38,178.42,-23.42,2.68
525,Korla,21,CN,1579890932,79,41.76,86.15,12.63,2.98
526,Corinth,20,GR,1579891211,75,37.94,22.96,48.99,2.04
527,Kruisfontein,51,ZA,1579890881,78,-34.0,24.73,71.47,1.5
528,Arrondissement de Villefranche-de-Rouergue,90,FR,1579891212,81,44.33,2.0,48.0,5.82
529,Kiruna,60,SE,1579891212,92,67.86,20.23,6.8,3.36
530,Kulhudhuffushi,62,MV,1579891212,79,6.62,73.07,82.54,9.44
531,Hastings,75,GB,1579890959,93,50.86,0.57,43.0,5.82
532,Roald,75,NO,1579891213,74,62.58,6.13,39.99,16.11
533,Gisborne,5,NZ,1579891213,91,-38.65,178.0,59.49,2.48
534,Shirokiy,0,RU,1579891213,91,49.76,129.52,-16.65,2.89
535,Smolyaninovo,0,RU,1579891213,63,43.3,132.47,-9.4,4.47
536,Mitsamiouli,100,KM,1579891213,76,-11.38,43.28,81.03,9.04
537,Luderitz,0,NA,1579890610,73,-26.65,15.16,71.6,10.29
538,Itoman,75,JP,1579891214,94,26.12,127.67,69.8,5.82
539,Lagoa,100,PT,1579890940,69,39.05,-27.98,57.4,10.2
540,Heraclea,13,TR,1579891214,49,37.51,34.05,21.94,5.5
541,Tiarei,20,PF,1579890950,70,-17.53,-149.33,84.2,2.24
542,Sechura,100,PE,1579891214,83,-5.56,-80.82,73.49,14.03
543,Hirna,100,ET,1579891214,88,9.22,41.1,59.61,7.11
544,Wahiawa,40,US,1579891215,93,21.5,-158.02,72.0,0.76
545,Yeniseysk,100,RU,1579891215,93,58.45,92.17,28.78,6.96
546,Two Hills,47,CA,1579891215,84,53.72,-111.75,29.93,6.22
547,Gombong,86,ID,1579891215,91,-7.61,109.51,76.62,1.28
548,Bardiyah,0,LY,1579891215,54,31.76,25.09,57.16,8.9
549,Biltine,0,TD,1579891215,12,14.53,20.92,64.38,13.87
550,Mnogovershinnyy,100,RU,1579891215,97,53.94,139.92,-6.32,4.63
551,Dondo,20,MZ,1579891216,74,-19.61,34.74,82.4,9.17
552,Segou,99,ML,1579891216,7,13.43,-6.22,88.83,8.43
553,Selu,0,IN,1579891216,42,19.47,76.47,73.22,8.16
554,Narasannapeta,0,IN,1579891216,85,18.42,84.05,68.07,1.79
555,Verkhnetulomskiy,75,RU,1579891206,84,68.61,31.8,8.6,0.49
556,Havre-Saint-Pierre,1,CA,1579891216,47,50.23,-63.6,14.0,8.05
557,Esim,2,GH,1579890956,73,4.87,-2.24,82.83,8.32
558,Laizhou,100,CN,1579891217,46,37.18,119.93,29.5,4.03
559,Bandundu,31,CD,1579891217,47,-3.32,17.37,82.31,1.7
560,Zheleznodorozhnyy,75,RU,1579891217,95,55.75,38.0,34.0,6.71
561,Edson,1,CA,1579891121,92,53.58,-116.44,23.0,2.24
562,Arlit,60,NE,1579891217,7,18.74,7.39,78.91,10.16
563,Maceio,75,BR,1579891217,62,-9.67,-35.74,86.0,13.87
564,Samandag,0,TR,1579891217,38,36.08,35.98,42.8,6.93
565,Encruzilhada do Sul,6,BR,1579891218,39,-30.54,-52.52,83.98,9.42
566,Maniitsoq,100,GL,1579891083,81,65.42,-52.9,11.3,12.86
567,Ossora,100,RU,1579891218,88,59.24,163.07,9.12,22.73
568,Zhigansk,48,RU,1579891218,96,66.77,123.37,-42.92,8.66
569,Half Moon Bay,20,US,1579890829,87,37.46,-122.43,60.01,8.05
570,Eastlake,90,US,1579891218,75,41.65,-81.45,44.6,11.41
571,Porto Walter,100,BR,1579891219,92,-8.27,-72.74,78.3,4.07
572,Port Lincoln,0,AU,1579890925,83,-34.73,135.87,60.98,6.42
573,Takaungu,100,KE,1579891219,88,-3.68,39.86,80.8,10.47
574,Olafsvik,100,IS,1579890884,79,64.89,-23.71,31.15,10.94
575,Itaituba,40,BR,1579891219,56,-4.28,-55.98,93.2,5.82
576,Elban,100,RU,1579891219,94,50.1,136.51,-10.71,2.44
577,Ketchikan,90,US,1579891219,100,55.34,-131.65,46.4,24.16
578,Alto Lucero,100,MX,1579891219,70,19.62,-96.72,76.05,4.34
579,Inirida,7,CO,1579891220,40,3.87,-67.92,100.13,1.45
580,Verkhoyansk,0,RU,1579891220,86,67.54,133.38,-44.16,1.43
581,New Castle,90,US,1579891058,93,41.0,-80.35,45.0,12.75
582,Yichun,6,CN,1579891143,90,47.7,128.9,-11.07,3.13
583,Pombas,83,CV,1579890937,44,17.15,-25.02,80.6,13.87
584,Itanhem,100,BR,1579891220,86,-17.17,-40.33,74.97,8.43
585,La Libertad,75,EC,1579891221,69,-2.23,-80.9,82.4,6.93
586,Yumen,9,CN,1579890880,53,40.28,97.2,19.06,9.69
587,Mutoko,89,ZW,1579891070,89,-17.4,32.23,66.76,2.13
588,Kamoke,20,PK,1579891221,58,31.97,74.22,55.4,2.71
589,Sterling,90,US,1579891221,66,39.01,-77.43,52.0,6.93
590,Luanda,75,AO,1579891101,66,-8.84,13.23,84.2,9.17
591,Bayshore Gardens,90,US,1579891222,73,27.43,-82.59,79.0,12.75
592,Ribeira Brava,20,PT,1579890889,51,32.65,-17.07,62.6,6.93
593,Anadyr,90,RU,1579890947,77,64.75,177.48,0.0,2.24
594,Bull Savanna,8,JM,1579891222,51,17.89,-77.59,79.36,5.23
595,Berberati,100,CF,1579891022,17,4.26,15.79,75.36,3.47
596,Xinpu,100,CN,1579891222,69,34.6,119.16,38.17,7.38
597,Camacha,40,PT,1579891017,72,33.08,-16.33,62.6,16.11
598,Jalu,0,LY,1579891223,57,29.03,21.55,56.55,7.45
